{
  "last_updated": "2026-03-31T13:04:43.603600+00:00",
  "races": [
    {
      "id": "klikego-1337120465909-38",
      "name": "Marathon d'Albi 2026 - 46ème édition",
      "date": "2026-04-26",
      "location": "Albi, 81",
      "platform": "klikego",
      "url": "https://www.klikego.com/inscrits/marathon-dalbi-2026-46eme-edition/1337120465909-38",
      "member_count": 2,
      "last_scraped": "2026-03-31T12:03:52.096355+00:00",
      "lat": 43.929864,
      "lng": 2.149681,
      "race_type": "route",
      "distances": [
        21.0,
        42.0
      ]
    },
    {
      "id": "klikego-1761801599707-1",
      "name": "Traversée de la Baie",
      "date": "2026-05-01",
      "location": "St brieuc, 22",
      "platform": "klikego",
      "url": "https://www.klikego.com/inscrits/traversee-de-la-baie-2026/1761801599707-1",
      "member_count": 1,
      "last_scraped": "2026-03-31T12:04:03.514974+00:00",
      "lat": 48.508238,
      "lng": -2.766074,
      "race_type": "trail",
      "distances": [
        15.0
      ]
    },
    {
      "id": "klikego-1748916984787-1",
      "name": "Ultra Trail des Monts d'Arrée (UTMA)",
      "date": "2026-05-02",
      "location": "Commana, 29",
      "platform": "klikego",
      "url": "https://www.klikego.com/inscrits/ultra-trail-des-monts-darree-utma-2026/1748916984787-1",
      "member_count": 1,
      "last_scraped": "2026-03-31T12:04:05.476201+00:00",
      "lat": 48.414964,
      "lng": -3.973223,
      "race_type": "trail",
      "distances": []
    },
    {
      "id": "klikego-1701485071110-3",
      "name": "Trail de Guerledan",
      "date": "2026-05-23",
      "location": "St gelven, 22",
      "platform": "klikego",
      "url": "https://www.klikego.com/inscrits/trail-de-guerledan-2026/1701485071110-3",
      "member_count": 1,
      "last_scraped": "2026-03-31T12:04:31.677704+00:00",
      "lat": 48.231752,
      "lng": -3.065038,
      "race_type": "trail",
      "distances": [
        26.0
      ]
    },
    {
      "id": "klikego-1390877940915-19",
      "name": "Tout Angers Bouge",
      "date": "2026-06-07",
      "location": "Angers, 49",
      "platform": "klikego",
      "url": "https://www.klikego.com/inscrits/tout-angers-bouge-2026/1390877940915-19",
      "member_count": 1,
      "last_scraped": "2026-03-31T12:04:53.360854+00:00",
      "lat": 47.467471,
      "lng": -0.561615,
      "race_type": "trail",
      "distances": []
    },
    {
      "id": "njuko-course-de-la-paix-2025",
      "name": "Course de la Paix 2025",
      "date": "2025-05-07",
      "location": "",
      "platform": "njuko",
      "url": "https://in.njuko.com/course-de-la-paix-2025",
      "member_count": 1,
      "last_scraped": "2026-03-31T12:17:17.665061+00:00",
      "lat": 44.090412,
      "lng": 6.854308,
      "race_type": "route",
      "distances": [
        10.0
      ]
    },
    {
      "id": "njuko-la-course-des-cretes-20261763566398100",
      "name": "LA COURSE DES CRETES 2026",
      "date": "2026-07-02",
      "location": "",
      "platform": "njuko",
      "url": "https://in.njuko.com/la-course-des-cretes-20261763566398100",
      "member_count": 1,
      "last_scraped": "2026-03-31T12:22:37.071563+00:00",
      "lat": 43.34,
      "lng": -1.45,
      "race_type": "route",
      "distances": []
    },
    {
      "id": "njuko-beerun-20251749066983838",
      "name": "BEERUN 2025",
      "date": "2025-10-03",
      "location": "",
      "platform": "njuko",
      "url": "https://in.njuko.com/beerun-20251749066983838",
      "member_count": 1,
      "last_scraped": "2026-03-31T12:19:23.223730+00:00",
      "lat": 47.51,
      "lng": -1.43,
      "race_type": "route",
      "distances": [
        6.0
      ]
    },
    {
      "id": "njuko-la-foulee-des-geants-20251737453669622",
      "name": "La Foulée des Géants 2025",
      "date": "2025-09-26",
      "location": "",
      "platform": "njuko",
      "url": "https://in.njuko.com/la-foulee-des-geants-20251737453669622",
      "member_count": 6,
      "last_scraped": "2026-03-31T12:21:24.571957+00:00",
      "lat": 48.938794,
      "lng": 2.8802,
      "race_type": "route",
      "distances": [
        10.0,
        20.0
      ]
    },
    {
      "id": "njuko-marathon-poitiers-futuroscope-2025",
      "name": "Marathon Poitiers-Futuroscope 2025",
      "date": "2025-04-12",
      "location": "",
      "platform": "njuko",
      "url": "https://in.njuko.com/marathon-poitiers-futuroscope-2025",
      "member_count": 11,
      "last_scraped": "2026-03-31T12:17:10.811740+00:00",
      "lat": 46.66,
      "lng": 0.37,
      "race_type": "route",
      "distances": [
        10.0,
        21.0,
        42.0
      ]
    },
    {
      "id": "njuko-menzis-4-mijl-van-groningen-20231680008576088",
      "name": "Menzis 4 Mijl van Groningen 2023",
      "date": "2023-10-07",
      "location": "",
      "platform": "njuko",
      "url": "https://in.njuko.com/menzis-4-mijl-van-groningen-20231680008576088",
      "member_count": 1,
      "last_scraped": "2026-03-31T12:16:14.432425+00:00",
      "race_type": "autre",
      "distances": []
    },
    {
      "id": "njuko-20km-de-maroilles-2026",
      "name": "20km de Maroilles 2026",
      "date": "2026-04-30",
      "location": "",
      "platform": "njuko",
      "url": "https://in.njuko.com/20km-de-maroilles-2026",
      "member_count": 1,
      "last_scraped": "2026-03-31T12:25:35.545769+00:00",
      "lat": 50.115193,
      "lng": 3.798258,
      "race_type": "route",
      "distances": [
        20.0
      ]
    },
    {
      "id": "njuko-e-run63-le-relais-des-garszelles-le-12-janvier-20251729093323413",
      "name": "LE RELAIS DES GARS'Z'ELLES ",
      "date": "2025-01-11",
      "location": "",
      "platform": "njuko",
      "url": "https://in.njuko.com/e-run63-le-relais-des-garszelles-le-12-janvier-20251729093323413",
      "member_count": 2,
      "last_scraped": "2026-03-31T12:28:49.150338+00:00",
      "lat": 49.09668,
      "lng": -0.968601,
      "race_type": "route",
      "distances": [
        20.0
      ]
    },
    {
      "id": "njuko-gtn2025",
      "name": "Grand Trail Nocturne des Hauts de France 2025",
      "date": "2025-10-31",
      "location": "",
      "platform": "njuko",
      "url": "https://in.njuko.com/gtn2025",
      "member_count": 1,
      "last_scraped": "2026-03-31T12:20:10.347848+00:00",
      "lat": 50.191253,
      "lng": 3.835463,
      "race_type": "trail",
      "distances": [
        36.0
      ]
    },
    {
      "id": "njuko-marathonbiarritz2025",
      "name": "Marathon International Biarritz Pays-Basque 2025",
      "date": "2025-05-03",
      "location": "",
      "platform": "njuko",
      "url": "https://in.njuko.com/marathonbiarritz2025",
      "member_count": 1,
      "last_scraped": "2026-03-31T12:17:23.933760+00:00",
      "lat": 43.480981,
      "lng": -1.566525,
      "race_type": "route",
      "distances": [
        21.0
      ]
    },
    {
      "id": "njuko-la-foulee-des-geants-20231668419821923",
      "name": "La Foulée des Géants 2023",
      "date": "2023-10-06",
      "location": "",
      "platform": "njuko",
      "url": "https://in.njuko.com/la-foulee-des-geants-20231668419821923",
      "member_count": 2,
      "last_scraped": "2026-03-31T12:27:37.004472+00:00",
      "lat": 48.938794,
      "lng": 2.8802,
      "race_type": "route",
      "distances": [
        19.0
      ]
    },
    {
      "id": "njuko-corrida-chateau-gontier1759580064975",
      "name": "Corrida Chateau Gontier",
      "date": "2025-12-27",
      "location": "",
      "platform": "njuko",
      "url": "https://in.njuko.com/corrida-chateau-gontier1759580064975",
      "member_count": 1,
      "last_scraped": "2026-03-31T12:24:07.381175+00:00",
      "lat": 47.763979,
      "lng": 0.39835,
      "race_type": "route",
      "distances": [
        5.0
      ]
    },
    {
      "id": "njuko-les-boucles-du-pays-elbeuvien-2025",
      "name": "LES BOUCLES DU PAYS ELBEUVIEN 2025",
      "date": "2025-03-22",
      "location": "",
      "platform": "njuko",
      "url": "https://in.njuko.com/les-boucles-du-pays-elbeuvien-2025",
      "member_count": 1,
      "last_scraped": "2026-03-31T12:30:57.147712+00:00",
      "race_type": "route",
      "distances": [
        21.0
      ]
    },
    {
      "id": "njuko-harmonie-mutuelle-marathon-10-20k-tours",
      "name": "HARMONIE MUTUELLE MARATHON 10-20K TOURS 2026",
      "date": "2026-09-26",
      "location": "",
      "platform": "njuko",
      "url": "https://in.njuko.com/harmonie-mutuelle-marathon-10-20k-tours",
      "member_count": 1,
      "last_scraped": "2026-03-31T12:20:06.916871+00:00",
      "lat": 47.395476,
      "lng": 0.695848,
      "race_type": "route",
      "distances": [
        10.0
      ]
    },
    {
      "id": "njuko-la-course-du-bien-public-2023",
      "name": "La Course du Bien Public",
      "date": "2023-09-08",
      "location": "",
      "platform": "njuko",
      "url": "https://in.njuko.com/la-course-du-bien-public-2023",
      "member_count": 1,
      "last_scraped": "2026-03-31T12:21:35.328289+00:00",
      "lat": 48.643945,
      "lng": 2.276987,
      "race_type": "route",
      "distances": [
        20.0
      ]
    },
    {
      "id": "njuko-fouleesg2a",
      "name": "Schneider Electric Foulées Angoulême",
      "date": "2026-03-27",
      "location": "",
      "platform": "njuko",
      "url": "https://in.njuko.com/fouleesg2a",
      "member_count": 5,
      "last_scraped": "2026-03-31T12:19:57.735519+00:00",
      "lat": 45.644105,
      "lng": 0.148008,
      "race_type": "route",
      "distances": [
        10.0
      ]
    },
    {
      "id": "njuko-endorun-20251751641421892",
      "name": "ENDORUN PARIS 2025",
      "date": "2025-11-15",
      "location": "",
      "platform": "njuko",
      "url": "https://in.njuko.com/endorun-20251751641421892",
      "member_count": 1,
      "last_scraped": "2026-03-31T12:16:20.103089+00:00",
      "lat": 48.85,
      "lng": 2.41,
      "race_type": "route",
      "distances": [
        10.0
      ]
    },
    {
      "id": "njuko-marathondelille2026",
      "name": "Marathon de Lille - Dimanche 25 octobre 2026",
      "date": "2026-10-24",
      "location": "",
      "platform": "njuko",
      "url": "https://in.njuko.com/marathondelille2026",
      "member_count": 1,
      "last_scraped": "2026-03-31T12:29:23.198184+00:00",
      "lat": 48.706285,
      "lng": 6.169492,
      "race_type": "route",
      "distances": [
        42.0
      ]
    },
    {
      "id": "njuko-laroutedulouvre2026",
      "name": "La Route du Louvre - Dimanche 10 mai 2026",
      "date": "2026-05-09",
      "location": "",
      "platform": "njuko",
      "url": "https://in.njuko.com/laroutedulouvre2026",
      "member_count": 1,
      "last_scraped": "2026-03-31T12:16:16.738145+00:00",
      "lat": 50.44,
      "lng": 2.82,
      "race_type": "route",
      "distances": [
        23.0
      ]
    },
    {
      "id": "njuko-ecotrail-paris-2026",
      "name": "Salomon EcoTrail Paris 2026",
      "date": "2026-03-20",
      "location": "",
      "platform": "njuko",
      "url": "https://in.njuko.com/ecotrail-paris-2026",
      "member_count": 3,
      "last_scraped": "2026-03-31T12:25:16.073660+00:00",
      "lat": 48.867492,
      "lng": 2.353961,
      "race_type": "trail",
      "distances": [
        45.0,
        80.0
      ]
    },
    {
      "id": "njuko-abalone-marathon-de-nantes-20261747744270005",
      "name": "Abalone Marathon de Nantes 2026",
      "date": "2026-04-24",
      "location": "",
      "platform": "njuko",
      "url": "https://in.njuko.com/abalone-marathon-de-nantes-20261747744270005",
      "member_count": 3,
      "last_scraped": "2026-03-31T12:22:05.437090+00:00",
      "lat": 48.083317,
      "lng": -1.65586,
      "race_type": "route",
      "distances": [
        10.0,
        42.0
      ]
    },
    {
      "id": "njuko-la-foulee-des-geants-20241702305550398",
      "name": "La Foulée des Géants 2024",
      "date": "2024-10-04",
      "location": "",
      "platform": "njuko",
      "url": "https://in.njuko.com/la-foulee-des-geants-20241702305550398",
      "member_count": 4,
      "last_scraped": "2026-03-31T12:17:01.802430+00:00",
      "lat": 48.938794,
      "lng": 2.8802,
      "race_type": "route",
      "distances": [
        10.0,
        20.0
      ]
    },
    {
      "id": "njuko-marathon-international-de-la-cote-damour-amarris-20261765967676928",
      "name": "Marathon International de la Côte d'Amour Amarris 2026",
      "date": "2026-11-06",
      "location": "",
      "platform": "njuko",
      "url": "https://in.njuko.com/marathon-international-de-la-cote-damour-amarris-20261765967676928",
      "member_count": 1,
      "last_scraped": "2026-03-31T12:26:02.784756+00:00",
      "race_type": "route",
      "distances": [
        21.0
      ]
    },
    {
      "id": "njuko-abalone-marathon-de-nantes-20251721120711923",
      "name": "Abalone Marathon de Nantes 2025",
      "date": "2025-04-25",
      "location": "",
      "platform": "njuko",
      "url": "https://in.njuko.com/abalone-marathon-de-nantes-20251721120711923",
      "member_count": 2,
      "last_scraped": "2026-03-31T12:21:13.691507+00:00",
      "lat": 47.24,
      "lng": -1.56,
      "race_type": "route",
      "distances": [
        10.0,
        21.0
      ]
    },
    {
      "id": "njuko-marathon-de-la-mer-2025",
      "name": "Marathon de la Mer ",
      "date": "2025-05-10",
      "location": "",
      "platform": "njuko",
      "url": "https://in.njuko.com/marathon-de-la-mer-2025",
      "member_count": 1,
      "last_scraped": "2026-03-31T12:18:10.113789+00:00",
      "lat": 50.73,
      "lng": 1.61,
      "race_type": "route",
      "distances": [
        21.0
      ]
    },
    {
      "id": "njuko-marathon-poitiers-futuroscope-20261749544909462",
      "name": "Marathon Poitiers-Futuroscope 2026",
      "date": "2026-04-11",
      "location": "",
      "platform": "njuko",
      "url": "https://in.njuko.com/marathon-poitiers-futuroscope-20261749544909462",
      "member_count": 12,
      "last_scraped": "2026-03-31T12:25:28.491530+00:00",
      "lat": 46.66,
      "lng": 0.37,
      "race_type": "route",
      "distances": [
        10.0,
        21.0,
        42.0
      ]
    },
    {
      "id": "njuko-half-on-the-head-2026",
      "name": "Half on the Head 2026",
      "date": "2026-06-12",
      "location": "",
      "platform": "njuko",
      "url": "https://in.njuko.com/half-on-the-head-2026",
      "member_count": 1,
      "last_scraped": "2026-03-31T12:28:16.297181+00:00",
      "race_type": "route",
      "distances": [
        42.0
      ]
    },
    {
      "id": "njuko-cdg-2025",
      "name": "CHOC DES GUERRIERS 2025",
      "date": "2025-12-05",
      "location": "",
      "platform": "njuko",
      "url": "https://in.njuko.com/cdg-2025",
      "member_count": 1,
      "last_scraped": "2026-03-31T12:29:55.676902+00:00",
      "lat": 45.66,
      "lng": 0.2,
      "race_type": "autre",
      "distances": []
    },
    {
      "id": "njuko-hendaia-trail-20261762937400379",
      "name": "HENDAIA TRAIL 2026",
      "date": "2026-02-07",
      "location": "",
      "platform": "njuko",
      "url": "https://in.njuko.com/hendaia-trail-20261762937400379",
      "member_count": 1,
      "last_scraped": "2026-03-31T12:26:18.243606+00:00",
      "lat": 43.360838,
      "lng": -1.759629,
      "race_type": "trail",
      "distances": [
        21.0
      ]
    },
    {
      "id": "njuko-marathon-10-20-km-tours-24",
      "name": "MARATHON, 10 ET 20 KM DE TOURS - 2024",
      "date": "2024-09-21",
      "location": "",
      "platform": "njuko",
      "url": "https://in.njuko.com/marathon-10-20-km-tours-24",
      "member_count": 1,
      "last_scraped": "2026-03-31T12:24:36.063226+00:00",
      "lat": 43.326231,
      "lng": 5.411429,
      "race_type": "route",
      "distances": [
        10.0
      ]
    },
    {
      "id": "njuko-les-foulees-du-saumur-champigny1746461940019",
      "name": "Les Foulées du Saumur Champigny",
      "date": "2025-09-13",
      "location": "",
      "platform": "njuko",
      "url": "https://in.njuko.com/les-foulees-du-saumur-champigny1746461940019",
      "member_count": 1,
      "last_scraped": "2026-03-31T12:20:32.344436+00:00",
      "lat": 47.249144,
      "lng": -0.062228,
      "race_type": "route",
      "distances": [
        9.0
      ]
    },
    {
      "id": "njuko-marathon-de-la-mer---ed20261756353391200",
      "name": "Marathon de la Mer - Ed.2026",
      "date": "2026-05-01",
      "location": "",
      "platform": "njuko",
      "url": "https://in.njuko.com/marathon-de-la-mer---ed20261756353391200",
      "member_count": 1,
      "last_scraped": "2026-03-31T12:30:15.504206+00:00",
      "lat": 50.73,
      "lng": 1.61,
      "race_type": "route",
      "distances": [
        21.0
      ]
    },
    {
      "id": "njuko-course-de-la-jonquille-contre-le-cancer",
      "name": "COURSE DE LA JONQUILLE CONTRE LE CANCER 2026",
      "date": "2026-03-09",
      "location": "",
      "platform": "njuko",
      "url": "https://in.njuko.com/course-de-la-jonquille-contre-le-cancer",
      "member_count": 1,
      "last_scraped": "2026-03-31T12:19:21.382448+00:00",
      "lat": 46.529557,
      "lng": 0.260907,
      "race_type": "route",
      "distances": []
    },
    {
      "id": "njuko-e-run63-la-course-des-peres-noel-de-st-benoit-le-20-decembre-2025",
      "name": "La Course des Pères Noel de St Benoit le 20 décembre 2025",
      "date": "2025-12-19",
      "location": "",
      "platform": "njuko",
      "url": "https://in.njuko.com/e-run63-la-course-des-peres-noel-de-st-benoit-le-20-decembre-2025",
      "member_count": 1,
      "last_scraped": "2026-03-31T12:29:31.105860+00:00",
      "lat": 46.55,
      "lng": 0.35,
      "race_type": "route",
      "distances": [
        7.5
      ]
    },
    {
      "id": "njuko-la-pastourelle-25",
      "name": "LA PASTOURELLE 2025",
      "date": "2025-05-08",
      "location": "",
      "platform": "njuko",
      "url": "https://in.njuko.com/la-pastourelle-25",
      "member_count": 1,
      "last_scraped": "2026-03-31T12:30:02.416930+00:00",
      "lat": 48.261903,
      "lng": -3.623572,
      "race_type": "autre",
      "distances": []
    },
    {
      "id": "njuko-la-pastourelle-20261750414544498",
      "name": "La Pastourelle 2026",
      "date": "2026-05-07",
      "location": "",
      "platform": "njuko",
      "url": "https://in.njuko.com/la-pastourelle-20261750414544498",
      "member_count": 3,
      "last_scraped": "2026-03-31T12:19:02.074644+00:00",
      "lat": 48.261903,
      "lng": -3.623572,
      "race_type": "autre",
      "distances": []
    },
    {
      "id": "njuko-mimo-trail-20251741203729728",
      "name": "Mimo Trail 2025",
      "date": "2025-12-06",
      "location": "",
      "platform": "njuko",
      "url": "https://in.njuko.com/mimo-trail-20251741203729728",
      "member_count": 1,
      "last_scraped": "2026-03-31T12:17:45.519547+00:00",
      "lat": 47.100572,
      "lng": 3.124534,
      "race_type": "trail",
      "distances": []
    },
    {
      "id": "njuko-grands-trails-dauvergne-2026",
      "name": "GRANDS TRAILS D'AUVERGNE 2026",
      "date": "2026-10-08",
      "location": "",
      "platform": "njuko",
      "url": "https://in.njuko.com/grands-trails-dauvergne-2026",
      "member_count": 1,
      "last_scraped": "2026-03-31T12:20:02.908505+00:00",
      "lat": 45.75,
      "lng": 3.6,
      "race_type": "trail",
      "distances": [
        27.0
      ]
    },
    {
      "id": "njuko-la-duchesse-20221653034248467",
      "name": "La Duchesse 2022",
      "date": "2022-09-30",
      "location": "",
      "platform": "njuko",
      "url": "https://in.njuko.com/la-duchesse-20221653034248467",
      "member_count": 1,
      "last_scraped": "2026-03-31T12:17:37.903253+00:00",
      "lat": 48.757921,
      "lng": 5.752917,
      "race_type": "route",
      "distances": [
        10.0
      ]
    },
    {
      "id": "njuko-marathon-international-cote-damour-amarris-20251736435041089",
      "name": "Marathon International Côte d'Amour Amarris 2025",
      "date": "2025-11-07",
      "location": "",
      "platform": "njuko",
      "url": "https://in.njuko.com/marathon-international-cote-damour-amarris-20251736435041089",
      "member_count": 2,
      "last_scraped": "2026-03-31T12:27:52.487881+00:00",
      "race_type": "route",
      "distances": [
        42.0
      ]
    },
    {
      "id": "njuko-ccb25",
      "name": "Caen Ça Bouge 2025",
      "date": "2025-10-03",
      "location": "",
      "platform": "njuko",
      "url": "https://in.njuko.com/ccb25",
      "member_count": 1,
      "last_scraped": "2026-03-31T12:20:39.157433+00:00",
      "lat": 49.184316,
      "lng": -0.37193,
      "race_type": "trail",
      "distances": [
        24.0
      ]
    },
    {
      "id": "njuko-10-miles-des-baines-20261767969394414",
      "name": "10 MILES DES BAINES 2026",
      "date": "2026-04-04",
      "location": "",
      "platform": "njuko",
      "url": "https://in.njuko.com/10-miles-des-baines-20261767969394414",
      "member_count": 1,
      "last_scraped": "2026-03-31T12:20:32.480391+00:00",
      "lat": 43.64,
      "lng": -1.42,
      "race_type": "route",
      "distances": []
    },
    {
      "id": "njuko-la-foulee-des-geants-20261771423573439",
      "name": "LA FOULÉE DES GÉANTS 2026",
      "date": "2026-09-25",
      "location": "",
      "platform": "njuko",
      "url": "https://in.njuko.com/la-foulee-des-geants-20261771423573439",
      "member_count": 1,
      "last_scraped": "2026-03-31T12:22:21.092109+00:00",
      "lat": 48.938794,
      "lng": 2.8802,
      "race_type": "route",
      "distances": [
        20.0
      ]
    },
    {
      "id": "njuko-montpellier-run-festival",
      "name": "Montpellier Run Festival 2024",
      "date": "2024-04-06",
      "location": "",
      "platform": "njuko",
      "url": "https://in.njuko.com/montpellier-run-festival",
      "member_count": 2,
      "last_scraped": "2026-03-31T12:21:19.306578+00:00",
      "lat": 43.610476,
      "lng": 3.87048,
      "race_type": "route",
      "distances": [
        10.0,
        42.0
      ]
    },
    {
      "id": "njuko-laroutedulouvre2025",
      "name": "La Route du Louvre",
      "date": "2025-05-10",
      "location": "",
      "platform": "njuko",
      "url": "https://in.njuko.com/laroutedulouvre2025",
      "member_count": 1,
      "last_scraped": "2026-03-31T12:24:11.450171+00:00",
      "lat": 50.44,
      "lng": 2.82,
      "race_type": "route",
      "distances": [
        14.0
      ]
    },
    {
      "id": "njuko-les-foulees-de-la-folie-2025",
      "name": "LES FOULÉES DE LA FOLIE 2025",
      "date": "2025-10-04",
      "location": "",
      "platform": "njuko",
      "url": "https://in.njuko.com/les-foulees-de-la-folie-2025",
      "member_count": 1,
      "last_scraped": "2026-03-31T12:29:37.687373+00:00",
      "lat": 48.938794,
      "lng": 2.8802,
      "race_type": "route",
      "distances": [
        10.0
      ]
    },
    {
      "id": "njuko-course-jonquille-2024",
      "name": "Course de la Jonquille Contre le Cancer 2024",
      "date": "2024-03-11",
      "location": "",
      "platform": "njuko",
      "url": "https://in.njuko.com/course-jonquille-2024",
      "member_count": 1,
      "last_scraped": "2026-03-31T12:31:05.492690+00:00",
      "lat": 46.529557,
      "lng": 0.260907,
      "race_type": "route",
      "distances": []
    },
    {
      "id": "njuko-abalone-marathon-de-nantes-20241689843497239",
      "name": "Abalone Marathon de Nantes 2024",
      "date": "2024-04-19",
      "location": "",
      "platform": "njuko",
      "url": "https://in.njuko.com/abalone-marathon-de-nantes-20241689843497239",
      "member_count": 2,
      "last_scraped": "2026-03-31T12:16:37.134812+00:00",
      "lat": 47.24,
      "lng": -1.56,
      "race_type": "route",
      "distances": [
        10.0
      ]
    },
    {
      "id": "njuko-montpellier-run-festival-2025",
      "name": "MONTPELLIER RUN FESTIVAL 2025",
      "date": "2025-04-11",
      "location": "",
      "platform": "njuko",
      "url": "https://in.njuko.com/montpellier-run-festival-2025",
      "member_count": 1,
      "last_scraped": "2026-03-31T12:28:12.925028+00:00",
      "lat": 43.610476,
      "lng": 3.87048,
      "race_type": "route",
      "distances": [
        21.0
      ]
    },
    {
      "id": "njuko-luchon-aneto-trail-20251732383516886",
      "name": "LUCHON ANETO TRAIL 2025",
      "date": "2025-07-03",
      "location": "",
      "platform": "njuko",
      "url": "https://in.njuko.com/luchon-aneto-trail-20251732383516886",
      "member_count": 2,
      "last_scraped": "2026-03-31T12:24:47.434706+00:00",
      "lat": 42.79,
      "lng": 0.59,
      "race_type": "trail",
      "distances": []
    },
    {
      "id": "njuko-corrida-de-magne1747056939930",
      "name": "Corrida de Magné",
      "date": "2025-12-27",
      "location": "",
      "platform": "njuko",
      "url": "https://in.njuko.com/corrida-de-magne1747056939930",
      "member_count": 3,
      "last_scraped": "2026-03-31T12:30:06.546011+00:00",
      "lat": 46.327975,
      "lng": -0.460665,
      "race_type": "route",
      "distances": [
        10.0
      ]
    },
    {
      "id": "njuko-la-falaise-20261764689509573",
      "name": "La Falaise 2026",
      "date": "2026-02-21",
      "location": "",
      "platform": "njuko",
      "url": "https://in.njuko.com/la-falaise-20261764689509573",
      "member_count": 1,
      "last_scraped": "2026-03-31T12:21:43.916707+00:00",
      "lat": 48.396438,
      "lng": -1.958765,
      "race_type": "route",
      "distances": [
        19.0
      ]
    },
    {
      "id": "njuko-le-belier-trail-rando-2025",
      "name": " Le Bélier - Trail & Rando 2025",
      "date": "2025-08-21",
      "location": "",
      "platform": "njuko",
      "url": "https://in.njuko.com/le-belier-trail-rando-2025",
      "member_count": 1,
      "last_scraped": "2026-03-31T12:23:31.990314+00:00",
      "race_type": "trail",
      "distances": [
        42.0
      ]
    },
    {
      "id": "njuko-defi-de-la-colline",
      "name": "Défi de la Colline",
      "date": "2026-01-02",
      "location": "",
      "platform": "njuko",
      "url": "https://in.njuko.com/defi-de-la-colline",
      "member_count": 2,
      "last_scraped": "2026-03-31T12:29:10.812765+00:00",
      "lat": 47.185788,
      "lng": -0.870769,
      "race_type": "route",
      "distances": [
        11.0
      ]
    },
    {
      "id": "njuko-abalone-marathon-de-nantes-20231662716070298",
      "name": "Abalone Marathon de Nantes 2023",
      "date": "2023-04-22",
      "location": "",
      "platform": "njuko",
      "url": "https://in.njuko.com/abalone-marathon-de-nantes-20231662716070298",
      "member_count": 3,
      "last_scraped": "2026-03-31T12:27:18.542477+00:00",
      "lat": 47.24,
      "lng": -1.56,
      "race_type": "route",
      "distances": [
        21.0
      ]
    },
    {
      "id": "njuko-marathon-seine-eure-2025",
      "name": "MARATHON SEINE-EURE 2025",
      "date": "2025-10-18",
      "location": "",
      "platform": "njuko",
      "url": "https://in.njuko.com/marathon-seine-eure-2025",
      "member_count": 1,
      "last_scraped": "2026-03-31T12:22:34.388555+00:00",
      "lat": 49.099162,
      "lng": 1.475943,
      "race_type": "route",
      "distances": [
        42.0
      ]
    },
    {
      "id": "chronostart-4961",
      "name": "LES FOULÉES DU LIONS SOLIDAIRES",
      "date": "2026-04-05",
      "location": "Niort (79)",
      "platform": "chronostart",
      "url": "https://chrono-start.fr/Inscription/Course/listing/c/4961",
      "member_count": 1,
      "last_scraped": "2026-03-31T12:33:43.595816+00:00",
      "lat": 46.327232,
      "lng": -0.466291,
      "race_type": "route",
      "distances": [
        10.0
      ]
    },
    {
      "id": "chronostart-5044",
      "name": "TRAIL DE LA CASCADE D’ARS",
      "date": "2026-06-14",
      "location": "Aulus-les-Bains (09)",
      "platform": "chronostart",
      "url": "https://chrono-start.fr/Inscription/Course/listing/c/5044",
      "member_count": 1,
      "last_scraped": "2026-03-31T12:34:05.394739+00:00",
      "lat": 42.793383,
      "lng": 1.332674,
      "race_type": "trail",
      "distances": [
        33.0
      ]
    },
    {
      "id": "chronostart-4881",
      "name": "COURSE D’ENFERT",
      "date": "2026-03-08",
      "location": "Saint Maixent l'École (79)",
      "platform": "chronostart",
      "url": "https://chrono-start.fr/Inscription/Course/listing/c/4881",
      "member_count": 1,
      "last_scraped": "2026-03-31T12:34:28.284070+00:00",
      "lat": 46.412912,
      "lng": -0.206888,
      "race_type": "route",
      "distances": [
        21.0
      ]
    },
    {
      "id": "chronostart-5115",
      "name": "TRAIL DU FORT BOYARD",
      "date": "2026-07-11",
      "location": "Boyardville (17)",
      "platform": "chronostart",
      "url": "https://chrono-start.fr/Inscription/Course/listing/c/5115",
      "member_count": 1,
      "last_scraped": "2026-03-31T12:34:53.498072+00:00",
      "lat": 45.914371,
      "lng": -1.255426,
      "race_type": "trail",
      "distances": [
        28.0
      ]
    },
    {
      "id": "ipitos-les_foulees_d_angouleme_2026",
      "name": "Foulées d'Angoulême",
      "date": "2026-03-28",
      "location": "",
      "platform": "ipitos",
      "url": "https://live.ipitos.com/les_foulees_d_angouleme_2026/",
      "member_count": 4,
      "last_scraped": "2026-03-31T12:38:42.376246+00:00",
      "lat": 48.73648,
      "lng": 2.293731,
      "race_type": "route",
      "distances": [
        10.0
      ]
    },
    {
      "id": "ipitos-semi-marathon_d_orvault_2026",
      "name": "Semi-Marathon d'Orvault",
      "date": "2026-03-08",
      "location": "",
      "platform": "ipitos",
      "url": "https://live.ipitos.com/semi-marathon_d_orvault_2026/",
      "member_count": 1,
      "last_scraped": "2026-03-31T12:38:42.722434+00:00",
      "lat": 47.28516,
      "lng": -1.580158,
      "race_type": "route",
      "distances": [
        21.0
      ]
    },
    {
      "id": "ipitos-defi_de_la_colline_2026",
      "name": "Défi de la Colline",
      "date": "2026-01-03",
      "location": "",
      "platform": "ipitos",
      "url": "https://live.ipitos.com/defi_de_la_colline_2026/",
      "member_count": 2,
      "last_scraped": "2026-03-31T12:38:45.443288+00:00",
      "lat": 47.185788,
      "lng": -0.870769,
      "race_type": "route",
      "distances": [
        11.0
      ]
    },
    {
      "id": "onsinscrit-trail-de-la-fee-melusine-2026",
      "name": "Trail de la Fée Mélusine à Lusignan",
      "date": "2026-04-19",
      "location": "Lusignan, Vienne",
      "platform": "onsinscrit",
      "url": "https://trail-de-la-fee-melusine-2026.onsinscrit.com/",
      "member_count": 2,
      "last_scraped": "2026-03-31T12:38:45.509315+00:00",
      "lat": 46.439407,
      "lng": 0.11313,
      "race_type": "trail",
      "distances": [
        13.0
      ]
    },
    {
      "id": "onsinscrit-foulees-du-maraisthon-2026",
      "name": "Les Foulées du Maraisthon 2026 à Sansais La Garette",
      "date": "2026-05-10",
      "location": "Sansais La Garette, Deux-Sevres",
      "platform": "onsinscrit",
      "url": "https://foulees-du-maraisthon-2026.onsinscrit.com/",
      "member_count": 1,
      "last_scraped": "2026-03-31T12:38:46.079829+00:00",
      "lat": 46.278531,
      "lng": -0.588628,
      "race_type": "route",
      "distances": [
        21.1
      ]
    },
    {
      "id": "onsinscrit-semi-marathon-jean-paul-cardineau-2026",
      "name": "10 km semi marathon jean-paul cardineau a chatellerault",
      "date": "2026-05-24",
      "location": "chatellerault, Vienne",
      "platform": "onsinscrit",
      "url": "https://semi-marathon-jean-paul-cardineau-2026.onsinscrit.com",
      "member_count": 1,
      "last_scraped": "2026-03-31T12:38:46.652307+00:00",
      "lat": 46.8162,
      "lng": 0.551,
      "race_type": "route",
      "distances": []
    }
  ]
}