{
  "last_updated": "2026-03-19T16:22:04.099530+00:00",
  "races": [
    {
      "id": "protiming-8037",
      "name": "L'Audengeoise",
      "date": "2026-03-29",
      "location": "Audenge, 33",
      "platform": "protiming",
      "url": "https://www.protiming.fr/Runnings/registers/8037",
      "lat": 44.6883648,
      "lng": -1.0198263,
      "member_count": 1,
      "last_scraped": "2026-03-19T15:37:41.511455+00:00"
    },
    {
      "id": "njuko-abalone-marathon-de-nantes-20261747744270005",
      "name": "Abalone Marathon de Nantes 2026",
      "date": "2026-04-24",
      "location": "",
      "platform": "njuko",
      "url": "https://in.njuko.com/abalone-marathon-de-nantes-20261747744270005",
      "lat": 48.083317,
      "lng": -1.65586,
      "member_count": 1,
      "last_scraped": "2026-03-19T15:56:13.245048+00:00"
    },
    {
      "id": "njuko-la-pastourelle-25",
      "name": "LA PASTOURELLE 2025",
      "date": "2025-05-08",
      "location": "",
      "platform": "njuko",
      "url": "https://in.njuko.com/la-pastourelle-25",
      "lat": 48.261903,
      "lng": -3.623572,
      "member_count": 1,
      "last_scraped": "2026-03-19T15:55:56.877901+00:00"
    },
    {
      "id": "njuko-la-pastourelle-20261750414544498",
      "name": "La Pastourelle 2026",
      "date": "2026-05-07",
      "location": "",
      "platform": "njuko",
      "url": "https://in.njuko.com/la-pastourelle-20261750414544498",
      "lat": 48.261903,
      "lng": -3.623572,
      "member_count": 3,
      "last_scraped": "2026-03-19T15:55:57.824755+00:00"
    },
    {
      "id": "njuko-la-course-des-cretes-20261763566398100",
      "name": "LA COURSE DES CRETES 2026",
      "date": "2026-07-02",
      "location": "",
      "platform": "njuko",
      "url": "https://in.njuko.com/la-course-des-cretes-20261763566398100",
      "lat": 42.713877,
      "lng": 9.449835,
      "member_count": 1,
      "last_scraped": "2026-03-19T15:55:50.753990+00:00"
    },
    {
      "id": "njuko-half-on-the-head-2026",
      "name": "Half on the Head 2026",
      "date": "2026-06-12",
      "location": "",
      "platform": "njuko",
      "url": "https://in.njuko.com/half-on-the-head-2026",
      "lat": 53.0163287,
      "lng": -9.3776097,
      "member_count": 1,
      "last_scraped": "2026-03-19T15:55:47.542742+00:00"
    },
    {
      "id": "njuko-laroutedulouvre2026",
      "name": "La Route du Louvre - Dimanche 10 mai 2026",
      "date": "2026-05-09",
      "location": "",
      "platform": "njuko",
      "url": "https://in.njuko.com/laroutedulouvre2026",
      "lat": 50.419122,
      "lng": 3.027127,
      "member_count": 1,
      "last_scraped": "2026-03-19T15:55:54.366292+00:00"
    },
    {
      "id": "njuko-grands-trails-dauvergne-2026",
      "name": "GRANDS TRAILS D'AUVERGNE 2026",
      "date": "2026-10-08",
      "location": "",
      "platform": "njuko",
      "url": "https://in.njuko.com/grands-trails-dauvergne-2026",
      "lat": 45.786671,
      "lng": 3.107055,
      "member_count": 1,
      "last_scraped": "2026-03-19T15:55:50.399139+00:00"
    },
    {
      "id": "njuko-la-falaise-20261764689509573",
      "name": "La Falaise 2026",
      "date": "2026-02-21",
      "location": "",
      "platform": "njuko",
      "url": "https://in.njuko.com/la-falaise-20261764689509573",
      "lat": 48.396438,
      "lng": -1.958765,
      "member_count": 1,
      "last_scraped": "2026-03-19T15:55:55.576491+00:00"
    },
    {
      "id": "njuko-trail-du-caillou-20261759154263426",
      "name": "Trail Du Caillou 2026",
      "date": "2026-01-31",
      "location": "",
      "platform": "njuko",
      "url": "https://in.njuko.com/trail-du-caillou-20261759154263426",
      "lat": 44.861176,
      "lng": -0.631459,
      "member_count": 1,
      "last_scraped": "2026-03-19T15:55:49.697855+00:00"
    },
    {
      "id": "njuko-marathon-poitiers-futuroscope-20261749544909462",
      "name": "Marathon Poitiers-Futuroscope 2026",
      "date": "2026-04-11",
      "location": "",
      "platform": "njuko",
      "url": "https://in.njuko.com/marathon-poitiers-futuroscope-20261749544909462",
      "lat": 46.586578,
      "lng": 0.35668,
      "member_count": 9,
      "last_scraped": "2026-03-19T15:56:02.098876+00:00"
    },
    {
      "id": "onsinscrit-foulees-nieuil-l-espoir-2026",
      "name": "23e foulées de Nieuil l Espoir",
      "date": "2026-03-22",
      "location": "Nieuil l Espoir, Vienne",
      "platform": "onsinscrit",
      "url": "https://foulees-nieuil-l-espoir-2026.onsinscrit.com",
      "lat": 46.4847979,
      "lng": 0.4562577,
      "member_count": 1,
      "last_scraped": "2026-03-19T15:48:21.925234+00:00"
    },
    {
      "id": "onsinscrit-trail-de-la-fee-melusine-2026",
      "name": "Trail de la Fée Mélusine à Lusignan",
      "date": "2026-04-19",
      "location": "Lusignan, Vienne",
      "platform": "onsinscrit",
      "url": "https://trail-de-la-fee-melusine-2026.onsinscrit.com/",
      "lat": 46.4351549,
      "lng": 0.1223765,
      "member_count": 2,
      "last_scraped": "2026-03-19T15:48:22.222729+00:00"
    },
    {
      "id": "onsinscrit-foulees-du-maraisthon-2026",
      "name": "Les Foulées du Maraisthon 2026 à Sansais La Garette",
      "date": "2026-05-10",
      "location": "Sansais La Garette, Deux-Sevres",
      "platform": "onsinscrit",
      "url": "https://foulees-du-maraisthon-2026.onsinscrit.com/",
      "lat": 46.2990758,
      "lng": -0.6094211,
      "member_count": 1,
      "last_scraped": "2026-03-19T15:48:22.415624+00:00"
    },
    {
      "id": "onsinscrit-semi-marathon-jean-paul-cardineau-2026",
      "name": "10 km semi marathon jean-paul cardineau a chatellerault",
      "date": "2026-05-24",
      "location": "chatellerault, Vienne",
      "platform": "onsinscrit",
      "url": "https://semi-marathon-jean-paul-cardineau-2026.onsinscrit.com",
      "lat": 46.8180047,
      "lng": 0.545812,
      "member_count": 1,
      "last_scraped": "2026-03-19T15:48:22.772618+00:00"
    },
    {
      "id": "njuko-10-miles-des-baines-20261767969394414",
      "name": "10 MILES DES BAINES 2026",
      "date": "2026-04-04",
      "location": "",
      "platform": "njuko",
      "url": "https://in.njuko.com/10-miles-des-baines-20261767969394414",
      "lat": 45.452233,
      "lng": 6.566878,
      "member_count": 1,
      "last_scraped": "2026-03-19T16:19:50.087612+00:00"
    },
    {
      "id": "njuko-hendaia-trail-20261762937400379",
      "name": "HENDAIA TRAIL 2026",
      "date": "2026-02-07",
      "location": "",
      "platform": "njuko",
      "url": "https://in.njuko.com/hendaia-trail-20261762937400379",
      "lat": 43.354182,
      "lng": -1.778596,
      "member_count": 1,
      "last_scraped": "2026-03-19T16:20:28.364264+00:00"
    },
    {
      "id": "njuko-marathon-de-la-mer---ed20261756353391200",
      "name": "Marathon de la Mer - Ed.2026",
      "date": "2026-05-01",
      "location": "",
      "platform": "njuko",
      "url": "https://in.njuko.com/marathon-de-la-mer---ed20261756353391200",
      "lat": 48.083317,
      "lng": -1.65586,
      "member_count": 1,
      "last_scraped": "2026-03-19T16:21:02.577108+00:00"
    },
    {
      "id": "njuko-ecotrail-paris-2026",
      "name": "Salomon EcoTrail Paris 2026",
      "date": "2026-03-20",
      "location": "",
      "platform": "njuko",
      "url": "https://in.njuko.com/ecotrail-paris-2026",
      "lat": 48.867492,
      "lng": 2.353961,
      "member_count": 3,
      "last_scraped": "2026-03-19T16:22:02.056836+00:00"
    }
  ]
}