{
  "last_updated": "2026-03-28T23:24:23.967998+00:00",
  "races": [
    {
      "id": "njuko-abalone-marathon-de-nantes-20261747744270005",
      "name": "Abalone Marathon de Nantes 2026",
      "date": "2026-04-24",
      "location": "",
      "platform": "njuko",
      "url": "https://in.njuko.com/abalone-marathon-de-nantes-20261747744270005",
      "lat": 48.083317,
      "lng": -1.65586,
      "member_count": 3,
      "last_scraped": "2026-03-28T23:15:14.956528+00:00"
    },
    {
      "id": "njuko-hendaia-trail-20261762937400379",
      "name": "HENDAIA TRAIL 2026",
      "date": "2026-02-07",
      "location": "",
      "platform": "njuko",
      "url": "https://in.njuko.com/hendaia-trail-20261762937400379",
      "lat": 43.354182,
      "lng": -1.778596,
      "member_count": 1,
      "last_scraped": "2026-03-28T23:15:24.719285+00:00"
    },
    {
      "id": "njuko-la-pastourelle-25",
      "name": "LA PASTOURELLE 2025",
      "date": "2025-05-08",
      "location": "",
      "platform": "njuko",
      "url": "https://in.njuko.com/la-pastourelle-25",
      "lat": 48.261903,
      "lng": -3.623572,
      "member_count": 1,
      "last_scraped": "2026-03-28T23:15:33.216635+00:00"
    },
    {
      "id": "njuko-la-pastourelle-20261750414544498",
      "name": "La Pastourelle 2026",
      "date": "2026-05-07",
      "location": "",
      "platform": "njuko",
      "url": "https://in.njuko.com/la-pastourelle-20261750414544498",
      "lat": 48.261903,
      "lng": -3.623572,
      "member_count": 3,
      "last_scraped": "2026-03-28T23:15:34.963583+00:00"
    },
    {
      "id": "njuko-la-course-des-cretes-20261763566398100",
      "name": "LA COURSE DES CRETES 2026",
      "date": "2026-07-02",
      "location": "",
      "platform": "njuko",
      "url": "https://in.njuko.com/la-course-des-cretes-20261763566398100",
      "lat": 42.713877,
      "lng": 9.449835,
      "member_count": 1,
      "last_scraped": "2026-03-28T23:15:49.470003+00:00"
    },
    {
      "id": "njuko-half-on-the-head-2026",
      "name": "Half on the Head 2026",
      "date": "2026-06-12",
      "location": "",
      "platform": "njuko",
      "url": "https://in.njuko.com/half-on-the-head-2026",
      "lat": 53.0163287,
      "lng": -9.3776097,
      "member_count": 1,
      "last_scraped": "2026-03-28T23:15:50.648171+00:00"
    },
    {
      "id": "njuko-la-falaise-20261764689509573",
      "name": "La Falaise 2026",
      "date": "2026-02-21",
      "location": "",
      "platform": "njuko",
      "url": "https://in.njuko.com/la-falaise-20261764689509573",
      "lat": 48.396438,
      "lng": -1.958765,
      "member_count": 1,
      "last_scraped": "2026-03-28T23:16:09.809140+00:00"
    },
    {
      "id": "njuko-grands-trails-dauvergne-2026",
      "name": "GRANDS TRAILS D'AUVERGNE 2026",
      "date": "2026-10-08",
      "location": "",
      "platform": "njuko",
      "url": "https://in.njuko.com/grands-trails-dauvergne-2026",
      "lat": 45.786671,
      "lng": 3.107055,
      "member_count": 1,
      "last_scraped": "2026-03-28T23:16:50.616649+00:00"
    },
    {
      "id": "njuko-laroutedulouvre2026",
      "name": "La Route du Louvre - Dimanche 10 mai 2026",
      "date": "2026-05-09",
      "location": "",
      "platform": "njuko",
      "url": "https://in.njuko.com/laroutedulouvre2026",
      "lat": 50.419122,
      "lng": 3.027127,
      "member_count": 1,
      "last_scraped": "2026-03-28T23:17:28.262358+00:00"
    },
    {
      "id": "njuko-trail-du-caillou-20261759154263426",
      "name": "Trail Du Caillou 2026",
      "date": "2026-01-31",
      "location": "",
      "platform": "njuko",
      "url": "https://in.njuko.com/trail-du-caillou-20261759154263426",
      "lat": 44.861176,
      "lng": -0.631459,
      "member_count": 1,
      "last_scraped": "2026-03-28T23:17:31.173346+00:00"
    },
    {
      "id": "njuko-ecotrail-paris-2026",
      "name": "Salomon EcoTrail Paris 2026",
      "date": "2026-03-20",
      "location": "",
      "platform": "njuko",
      "url": "https://in.njuko.com/ecotrail-paris-2026",
      "lat": 48.867492,
      "lng": 2.353961,
      "member_count": 3,
      "last_scraped": "2026-03-28T23:17:35.265255+00:00"
    },
    {
      "id": "njuko-marathon-de-la-mer---ed20261756353391200",
      "name": "Marathon de la Mer - Ed.2026",
      "date": "2026-05-01",
      "location": "",
      "platform": "njuko",
      "url": "https://in.njuko.com/marathon-de-la-mer---ed20261756353391200",
      "lat": 48.083317,
      "lng": -1.65586,
      "member_count": 1,
      "last_scraped": "2026-03-28T23:17:36.356915+00:00"
    },
    {
      "id": "njuko-marathon-poitiers-futuroscope-20261749544909462",
      "name": "Marathon Poitiers-Futuroscope 2026",
      "date": "2026-04-11",
      "location": "",
      "platform": "njuko",
      "url": "https://in.njuko.com/marathon-poitiers-futuroscope-20261749544909462",
      "lat": 46.586578,
      "lng": 0.35668,
      "member_count": 11,
      "last_scraped": "2026-03-28T23:18:12.618484+00:00"
    },
    {
      "id": "chronostart-5044",
      "name": "Trail de la Cascade d'Ars",
      "date": "2026-06-14",
      "location": "Aulus-les-Bains, Ariege",
      "platform": "chronostart",
      "url": "https://chrono-start.fr/Inscription/Course/listing/c/5044",
      "lat": 42.793383,
      "lng": 1.332674,
      "member_count": 1,
      "last_scraped": "2026-03-28T23:20:15.097851+00:00"
    },
    {
      "id": "chronostart-4881",
      "name": "COURSE D&rsquo;ENFERT",
      "date": "",
      "location": "",
      "platform": "chronostart",
      "url": "https://chrono-start.fr/Inscription/Course/listing/c/4881",
      "lat": 49.209452,
      "lng": -0.510503,
      "member_count": 1,
      "last_scraped": "2026-03-28T23:20:29.305829+00:00"
    },
    {
      "id": "chronostart-5115",
      "name": "TRAIL DU FORT BOYARD",
      "date": "",
      "location": "",
      "platform": "chronostart",
      "url": "https://chrono-start.fr/Inscription/Course/listing/c/5115",
      "lat": 46.231199,
      "lng": -1.133522,
      "member_count": 1,
      "last_scraped": "2026-03-28T23:21:00.045356+00:00"
    },
    {
      "id": "onsinscrit-trail-de-la-fee-melusine-2026",
      "name": "Trail de la Fée Mélusine à Lusignan",
      "date": "2026-04-19",
      "location": "Lusignan, Vienne",
      "platform": "onsinscrit",
      "url": "https://trail-de-la-fee-melusine-2026.onsinscrit.com/",
      "lat": 46.4351549,
      "lng": 0.1223765,
      "member_count": 1,
      "last_scraped": "2026-03-28T23:24:17.649182+00:00"
    },
    {
      "id": "onsinscrit-foulees-du-maraisthon-2026",
      "name": "Les Foulées du Maraisthon 2026 à Sansais La Garette",
      "date": "2026-05-10",
      "location": "Sansais La Garette, Deux-Sevres",
      "platform": "onsinscrit",
      "url": "https://foulees-du-maraisthon-2026.onsinscrit.com/",
      "lat": 46.2990758,
      "lng": -0.6094211,
      "member_count": 1,
      "last_scraped": "2026-03-28T23:24:17.900835+00:00"
    },
    {
      "id": "onsinscrit-semi-marathon-jean-paul-cardineau-2026",
      "name": "10 km semi marathon jean-paul cardineau a chatellerault",
      "date": "2026-05-24",
      "location": "chatellerault, Vienne",
      "platform": "onsinscrit",
      "url": "https://semi-marathon-jean-paul-cardineau-2026.onsinscrit.com",
      "lat": 46.8180047,
      "lng": 0.545812,
      "member_count": 1,
      "last_scraped": "2026-03-28T23:24:18.413834+00:00"
    }
  ]
}