{
  "last_updated": "2026-03-31T06:33:47.182574+00:00",
  "races": [
    {
      "id": "njuko-half-on-the-head-2026",
      "name": "Half on the Head 2026",
      "date": "2026-06-12",
      "location": "",
      "platform": "njuko",
      "url": "https://in.njuko.com/half-on-the-head-2026",
      "lat": null,
      "lng": null,
      "member_count": 1,
      "last_scraped": "2026-03-31T06:32:23.356701+00:00"
    },
    {
      "id": "njuko-10-miles-des-baines-20261767969394414",
      "name": "10 MILES DES BAINES 2026",
      "date": "2026-04-04",
      "location": "",
      "platform": "njuko",
      "url": "https://in.njuko.com/10-miles-des-baines-20261767969394414",
      "lat": 43.64,
      "lng": -1.42,
      "member_count": 1,
      "last_scraped": "2026-03-31T06:32:24.124928+00:00"
    },
    {
      "id": "njuko-corrida-chateau-gontier1759580064975",
      "name": "Corrida Chateau Gontier",
      "date": "2025-12-27",
      "location": "",
      "platform": "njuko",
      "url": "https://in.njuko.com/corrida-chateau-gontier1759580064975",
      "lat": 47.763979,
      "lng": 0.39835,
      "member_count": 1,
      "last_scraped": "2026-03-31T06:32:26.132578+00:00"
    },
    {
      "id": "njuko-les-foulees-de-la-folie-2025",
      "name": "LES FOULÉES DE LA FOLIE 2025",
      "date": "2025-10-04",
      "location": "",
      "platform": "njuko",
      "url": "https://in.njuko.com/les-foulees-de-la-folie-2025",
      "lat": 48.938794,
      "lng": 2.8802,
      "member_count": 1,
      "last_scraped": "2026-03-31T06:32:26.507435+00:00"
    },
    {
      "id": "njuko-les-foulees-du-saumur-champigny1746461940019",
      "name": "Les Foulées du Saumur Champigny",
      "date": "2025-09-13",
      "location": "",
      "platform": "njuko",
      "url": "https://in.njuko.com/les-foulees-du-saumur-champigny1746461940019",
      "lat": 47.249144,
      "lng": -0.062228,
      "member_count": 1,
      "last_scraped": "2026-03-31T06:32:29.791322+00:00"
    },
    {
      "id": "njuko-la-course-des-cretes-20261763566398100",
      "name": "LA COURSE DES CRETES 2026",
      "date": "2026-07-02",
      "location": "",
      "platform": "njuko",
      "url": "https://in.njuko.com/la-course-des-cretes-20261763566398100",
      "lat": 43.34,
      "lng": -1.45,
      "member_count": 1,
      "last_scraped": "2026-03-31T06:32:30.362686+00:00"
    },
    {
      "id": "njuko-fouleesg2a",
      "name": "Schneider Electric Foulées Angoulême",
      "date": "2026-03-27",
      "location": "",
      "platform": "njuko",
      "url": "https://in.njuko.com/fouleesg2a",
      "lat": 45.644105,
      "lng": 0.148008,
      "member_count": 5,
      "last_scraped": "2026-03-31T06:32:31.308145+00:00"
    },
    {
      "id": "njuko-montpellier-run-festival",
      "name": "Montpellier Run Festival 2024",
      "date": "2024-04-06",
      "location": "",
      "platform": "njuko",
      "url": "https://in.njuko.com/montpellier-run-festival",
      "lat": 43.610476,
      "lng": 3.87048,
      "member_count": 2,
      "last_scraped": "2026-03-31T06:32:41.311253+00:00"
    },
    {
      "id": "njuko-la-pastourelle-25",
      "name": "LA PASTOURELLE 2025",
      "date": "2025-05-08",
      "location": "",
      "platform": "njuko",
      "url": "https://in.njuko.com/la-pastourelle-25",
      "lat": 48.261903,
      "lng": -3.623572,
      "member_count": 1,
      "last_scraped": "2026-03-31T06:32:41.921173+00:00"
    },
    {
      "id": "njuko-la-duchesse-20221653034248467",
      "name": "La Duchesse 2022",
      "date": "2022-09-30",
      "location": "",
      "platform": "njuko",
      "url": "https://in.njuko.com/la-duchesse-20221653034248467",
      "lat": 48.757921,
      "lng": 5.752917,
      "member_count": 1,
      "last_scraped": "2026-03-31T06:32:43.625140+00:00"
    },
    {
      "id": "njuko-montpellier-run-festival-2025",
      "name": "MONTPELLIER RUN FESTIVAL 2025",
      "date": "2025-04-11",
      "location": "",
      "platform": "njuko",
      "url": "https://in.njuko.com/montpellier-run-festival-2025",
      "lat": 43.610476,
      "lng": 3.87048,
      "member_count": 1,
      "last_scraped": "2026-03-31T06:32:45.313246+00:00"
    },
    {
      "id": "njuko-laroutedulouvre2026",
      "name": "La Route du Louvre - Dimanche 10 mai 2026",
      "date": "2026-05-09",
      "location": "",
      "platform": "njuko",
      "url": "https://in.njuko.com/laroutedulouvre2026",
      "lat": 50.44,
      "lng": 2.82,
      "member_count": 1,
      "last_scraped": "2026-03-31T06:32:46.507738+00:00"
    },
    {
      "id": "njuko-e-run63-la-course-des-peres-noel-de-st-benoit-le-20-decembre-2025",
      "name": "La Course des Pères Noel de St Benoit le 20 décembre 2025",
      "date": "2025-12-19",
      "location": "",
      "platform": "njuko",
      "url": "https://in.njuko.com/e-run63-la-course-des-peres-noel-de-st-benoit-le-20-decembre-2025",
      "lat": 46.55,
      "lng": 0.35,
      "member_count": 1,
      "last_scraped": "2026-03-31T06:32:47.042737+00:00"
    },
    {
      "id": "njuko-les-boucles-du-pays-elbeuvien-2025",
      "name": "LES BOUCLES DU PAYS ELBEUVIEN 2025",
      "date": "2025-03-22",
      "location": "",
      "platform": "njuko",
      "url": "https://in.njuko.com/les-boucles-du-pays-elbeuvien-2025",
      "lat": null,
      "lng": null,
      "member_count": 1,
      "last_scraped": "2026-03-31T06:32:47.364271+00:00"
    },
    {
      "id": "njuko-hendaia-trail-20261762937400379",
      "name": "HENDAIA TRAIL 2026",
      "date": "2026-02-07",
      "location": "",
      "platform": "njuko",
      "url": "https://in.njuko.com/hendaia-trail-20261762937400379",
      "lat": 43.360838,
      "lng": -1.759629,
      "member_count": 1,
      "last_scraped": "2026-03-31T06:32:48.898833+00:00"
    },
    {
      "id": "njuko-ccb25",
      "name": "Caen Ça Bouge 2025",
      "date": "2025-10-03",
      "location": "",
      "platform": "njuko",
      "url": "https://in.njuko.com/ccb25",
      "lat": 49.184316,
      "lng": -0.37193,
      "member_count": 1,
      "last_scraped": "2026-03-31T06:32:53.579297+00:00"
    },
    {
      "id": "njuko-abalone-marathon-de-nantes-20241689843497239",
      "name": "Abalone Marathon de Nantes 2024",
      "date": "2024-04-19",
      "location": "",
      "platform": "njuko",
      "url": "https://in.njuko.com/abalone-marathon-de-nantes-20241689843497239",
      "lat": 47.24,
      "lng": -1.56,
      "member_count": 2,
      "last_scraped": "2026-03-31T06:32:55.291125+00:00"
    },
    {
      "id": "njuko-grands-trails-dauvergne-2026",
      "name": "GRANDS TRAILS D'AUVERGNE 2026",
      "date": "2026-10-08",
      "location": "",
      "platform": "njuko",
      "url": "https://in.njuko.com/grands-trails-dauvergne-2026",
      "lat": 45.75,
      "lng": 3.6,
      "member_count": 1,
      "last_scraped": "2026-03-31T06:32:55.632213+00:00"
    },
    {
      "id": "njuko-la-course-du-bien-public-2023",
      "name": "La Course du Bien Public",
      "date": "2023-09-08",
      "location": "",
      "platform": "njuko",
      "url": "https://in.njuko.com/la-course-du-bien-public-2023",
      "lat": 48.643945,
      "lng": 2.276987,
      "member_count": 1,
      "last_scraped": "2026-03-31T06:32:55.797552+00:00"
    },
    {
      "id": "njuko-marathon-poitiers-futuroscope-2025",
      "name": "Marathon Poitiers-Futuroscope 2025",
      "date": "2025-04-12",
      "location": "",
      "platform": "njuko",
      "url": "https://in.njuko.com/marathon-poitiers-futuroscope-2025",
      "lat": 46.66,
      "lng": 0.37,
      "member_count": 11,
      "last_scraped": "2026-03-31T06:32:56.521399+00:00"
    },
    {
      "id": "njuko-defi-de-la-colline",
      "name": "Défi de la Colline",
      "date": "2026-01-02",
      "location": "",
      "platform": "njuko",
      "url": "https://in.njuko.com/defi-de-la-colline",
      "lat": 47.185788,
      "lng": -0.870769,
      "member_count": 2,
      "last_scraped": "2026-03-31T06:32:57.114478+00:00"
    },
    {
      "id": "njuko-beerun-20251749066983838",
      "name": "BEERUN 2025",
      "date": "2025-10-03",
      "location": "",
      "platform": "njuko",
      "url": "https://in.njuko.com/beerun-20251749066983838",
      "lat": 47.51,
      "lng": -1.43,
      "member_count": 1,
      "last_scraped": "2026-03-31T06:32:57.776056+00:00"
    },
    {
      "id": "njuko-la-falaise-20261764689509573",
      "name": "La Falaise 2026",
      "date": "2026-02-21",
      "location": "",
      "platform": "njuko",
      "url": "https://in.njuko.com/la-falaise-20261764689509573",
      "lat": 48.396438,
      "lng": -1.958765,
      "member_count": 1,
      "last_scraped": "2026-03-31T06:32:58.238204+00:00"
    },
    {
      "id": "njuko-e-run63-le-relais-des-garszelles-le-12-janvier-20251729093323413",
      "name": "LE RELAIS DES GARS'Z'ELLES ",
      "date": "2025-01-11",
      "location": "",
      "platform": "njuko",
      "url": "https://in.njuko.com/e-run63-le-relais-des-garszelles-le-12-janvier-20251729093323413",
      "lat": 49.09668,
      "lng": -0.968601,
      "member_count": 2,
      "last_scraped": "2026-03-31T06:32:59.090411+00:00"
    },
    {
      "id": "njuko-gtn2025",
      "name": "Grand Trail Nocturne des Hauts de France 2025",
      "date": "2025-10-31",
      "location": "",
      "platform": "njuko",
      "url": "https://in.njuko.com/gtn2025",
      "lat": 50.191253,
      "lng": 3.835463,
      "member_count": 1,
      "last_scraped": "2026-03-31T06:33:01.355230+00:00"
    },
    {
      "id": "njuko-endorun-20251751641421892",
      "name": "ENDORUN PARIS 2025",
      "date": "2025-11-15",
      "location": "",
      "platform": "njuko",
      "url": "https://in.njuko.com/endorun-20251751641421892",
      "lat": 48.85,
      "lng": 2.41,
      "member_count": 1,
      "last_scraped": "2026-03-31T06:33:01.629606+00:00"
    },
    {
      "id": "njuko-la-pastourelle-20261750414544498",
      "name": "La Pastourelle 2026",
      "date": "2026-05-07",
      "location": "",
      "platform": "njuko",
      "url": "https://in.njuko.com/la-pastourelle-20261750414544498",
      "lat": 48.261903,
      "lng": -3.623572,
      "member_count": 3,
      "last_scraped": "2026-03-31T06:33:04.528155+00:00"
    },
    {
      "id": "njuko-la-foulee-des-geants-20241702305550398",
      "name": "La Foulée des Géants 2024",
      "date": "2024-10-04",
      "location": "",
      "platform": "njuko",
      "url": "https://in.njuko.com/la-foulee-des-geants-20241702305550398",
      "lat": 48.938794,
      "lng": 2.8802,
      "member_count": 4,
      "last_scraped": "2026-03-31T06:33:08.140830+00:00"
    },
    {
      "id": "njuko-marathon-de-la-mer---ed20261756353391200",
      "name": "Marathon de la Mer - Ed.2026",
      "date": "2026-05-01",
      "location": "",
      "platform": "njuko",
      "url": "https://in.njuko.com/marathon-de-la-mer---ed20261756353391200",
      "lat": 50.73,
      "lng": 1.61,
      "member_count": 1,
      "last_scraped": "2026-03-31T06:33:08.645957+00:00"
    },
    {
      "id": "njuko-la-foulee-des-geants-20251737453669622",
      "name": "La Foulée des Géants 2025",
      "date": "2025-09-26",
      "location": "",
      "platform": "njuko",
      "url": "https://in.njuko.com/la-foulee-des-geants-20251737453669622",
      "lat": 48.938794,
      "lng": 2.8802,
      "member_count": 6,
      "last_scraped": "2026-03-31T06:33:15.520195+00:00"
    },
    {
      "id": "njuko-course-de-la-jonquille-contre-le-cancer",
      "name": "COURSE DE LA JONQUILLE CONTRE LE CANCER 2026",
      "date": "2026-03-09",
      "location": "",
      "platform": "njuko",
      "url": "https://in.njuko.com/course-de-la-jonquille-contre-le-cancer",
      "lat": 46.529557,
      "lng": 0.260907,
      "member_count": 1,
      "last_scraped": "2026-03-31T06:33:16.701635+00:00"
    },
    {
      "id": "njuko-marathon-de-la-mer-2025",
      "name": "Marathon de la Mer ",
      "date": "2025-05-10",
      "location": "",
      "platform": "njuko",
      "url": "https://in.njuko.com/marathon-de-la-mer-2025",
      "lat": 50.73,
      "lng": 1.61,
      "member_count": 1,
      "last_scraped": "2026-03-31T06:33:17.308419+00:00"
    },
    {
      "id": "njuko-cdg-2025",
      "name": "CHOC DES GUERRIERS 2025",
      "date": "2025-12-05",
      "location": "",
      "platform": "njuko",
      "url": "https://in.njuko.com/cdg-2025",
      "lat": 45.66,
      "lng": 0.2,
      "member_count": 1,
      "last_scraped": "2026-03-31T06:33:19.781655+00:00"
    },
    {
      "id": "njuko-course-jonquille-2024",
      "name": "Course de la Jonquille Contre le Cancer 2024",
      "date": "2024-03-11",
      "location": "",
      "platform": "njuko",
      "url": "https://in.njuko.com/course-jonquille-2024",
      "lat": 46.529557,
      "lng": 0.260907,
      "member_count": 1,
      "last_scraped": "2026-03-31T06:33:22.562694+00:00"
    },
    {
      "id": "njuko-corrida-de-magne1747056939930",
      "name": "Corrida de Magné",
      "date": "2025-12-27",
      "location": "",
      "platform": "njuko",
      "url": "https://in.njuko.com/corrida-de-magne1747056939930",
      "lat": 46.327975,
      "lng": -0.460665,
      "member_count": 3,
      "last_scraped": "2026-03-31T06:33:22.992656+00:00"
    },
    {
      "id": "njuko-harmonie-mutuelle-marathon-10-20k-tours",
      "name": "HARMONIE MUTUELLE MARATHON 10-20K TOURS 2026",
      "date": "2026-09-26",
      "location": "",
      "platform": "njuko",
      "url": "https://in.njuko.com/harmonie-mutuelle-marathon-10-20k-tours",
      "lat": 47.395476,
      "lng": 0.695848,
      "member_count": 1,
      "last_scraped": "2026-03-31T06:33:24.775116+00:00"
    },
    {
      "id": "njuko-mimo-trail-20251741203729728",
      "name": "Mimo Trail 2025",
      "date": "2025-12-06",
      "location": "",
      "platform": "njuko",
      "url": "https://in.njuko.com/mimo-trail-20251741203729728",
      "lat": 47.100572,
      "lng": 3.124534,
      "member_count": 1,
      "last_scraped": "2026-03-31T06:33:25.859437+00:00"
    },
    {
      "id": "njuko-luchon-aneto-trail-20251732383516886",
      "name": "LUCHON ANETO TRAIL 2025",
      "date": "2025-07-03",
      "location": "",
      "platform": "njuko",
      "url": "https://in.njuko.com/luchon-aneto-trail-20251732383516886",
      "lat": 42.79,
      "lng": 0.59,
      "member_count": 2,
      "last_scraped": "2026-03-31T06:33:27.801701+00:00"
    },
    {
      "id": "njuko-la-foulee-des-geants-20231668419821923",
      "name": "La Foulée des Géants 2023",
      "date": "2023-10-06",
      "location": "",
      "platform": "njuko",
      "url": "https://in.njuko.com/la-foulee-des-geants-20231668419821923",
      "lat": 48.938794,
      "lng": 2.8802,
      "member_count": 2,
      "last_scraped": "2026-03-31T06:33:35.189231+00:00"
    },
    {
      "id": "chronostart-5044",
      "name": "TRAIL DE LA CASCADE D’ARS",
      "date": "2026-06-14",
      "location": "Aulus-les-Bains (09)",
      "platform": "chronostart",
      "url": "https://chrono-start.fr/Inscription/Course/listing/c/5044",
      "lat": 42.793383,
      "lng": 1.332674,
      "member_count": 1,
      "last_scraped": "2026-03-31T06:33:37.241790+00:00"
    },
    {
      "id": "chronostart-4881",
      "name": "COURSE D’ENFERT",
      "date": "2026-03-08",
      "location": "Saint Maixent l'École (79)",
      "platform": "chronostart",
      "url": "https://chrono-start.fr/Inscription/Course/listing/c/4881",
      "lat": 46.412912,
      "lng": -0.206888,
      "member_count": 1,
      "last_scraped": "2026-03-31T06:33:37.627556+00:00"
    },
    {
      "id": "njuko-marathon-poitiers-futuroscope-20261749544909462",
      "name": "Marathon Poitiers-Futuroscope 2026",
      "date": "2026-04-11",
      "location": "",
      "platform": "njuko",
      "url": "https://in.njuko.com/marathon-poitiers-futuroscope-20261749544909462",
      "lat": 46.66,
      "lng": 0.37,
      "member_count": 11,
      "last_scraped": "2026-03-31T06:33:39.113574+00:00"
    },
    {
      "id": "onsinscrit-trail-de-la-fee-melusine-2026",
      "name": "Trail de la Fée Mélusine à Lusignan",
      "date": "2026-04-19",
      "location": "Lusignan, Vienne",
      "platform": "onsinscrit",
      "url": "https://trail-de-la-fee-melusine-2026.onsinscrit.com/",
      "lat": 46.439407,
      "lng": 0.11313,
      "member_count": 2,
      "last_scraped": "2026-03-31T06:33:39.412633+00:00"
    },
    {
      "id": "onsinscrit-foulees-du-maraisthon-2026",
      "name": "Les Foulées du Maraisthon 2026 à Sansais La Garette",
      "date": "2026-05-10",
      "location": "Sansais La Garette, Deux-Sevres",
      "platform": "onsinscrit",
      "url": "https://foulees-du-maraisthon-2026.onsinscrit.com/",
      "lat": 46.278531,
      "lng": -0.588628,
      "member_count": 1,
      "last_scraped": "2026-03-31T06:33:39.683853+00:00"
    },
    {
      "id": "onsinscrit-semi-marathon-jean-paul-cardineau-2026",
      "name": "10 km semi marathon jean-paul cardineau a chatellerault",
      "date": "2026-05-24",
      "location": "chatellerault, Vienne",
      "platform": "onsinscrit",
      "url": "https://semi-marathon-jean-paul-cardineau-2026.onsinscrit.com",
      "lat": 46.8162,
      "lng": 0.551,
      "member_count": 1,
      "last_scraped": "2026-03-31T06:33:40.431112+00:00"
    },
    {
      "id": "njuko-laroutedulouvre2025",
      "name": "La Route du Louvre",
      "date": "2025-05-10",
      "location": "",
      "platform": "njuko",
      "url": "https://in.njuko.com/laroutedulouvre2025",
      "lat": 50.44,
      "lng": 2.82,
      "member_count": 1,
      "last_scraped": "2026-03-31T06:33:43.074882+00:00"
    },
    {
      "id": "chronostart-5115",
      "name": "TRAIL DU FORT BOYARD",
      "date": "2026-07-11",
      "location": "Boyardville (17)",
      "platform": "chronostart",
      "url": "https://chrono-start.fr/Inscription/Course/listing/c/5115",
      "lat": 45.914371,
      "lng": -1.255426,
      "member_count": 1,
      "last_scraped": "2026-03-31T06:33:43.483177+00:00"
    }
  ]
}